{
"type": "FeatureCollection",
"name": "intersection_pro",
"crs": { "type": "name", "properties": { "name": "urn:ogc:def:crs:OGC:1.3:CRS84" } },
"features": [
{ "type": "Feature", "properties": { "FID": 1, "交差点番号": 5339452951, "交差点名": "溜池", "Y": 35.670961, "X": 139.742857, "Street1": "六本木通り", "street2": "外堀通り", "Street3": null, "rank": true }, "geometry": { "type": "Point", "coordinates": [ 139.742857, 35.670961 ] } },
{ "type": "Feature", "properties": { "FID": 2, "交差点番号": 5339352255, "交差点名": "六本木", "Y": 35.663235, "X": 139.732277, "Street1": "六本木通り", "street2": "外苑東通り", "Street3": null, "rank": null }, "geometry": { "type": "Point", "coordinates": [ 139.732277, 35.663235 ] } },
{ "type": "Feature", "properties": { "FID": 3, "交差点番号": 5339354765, "交差点名": "西麻布", "Y": 35.659747, "X": 139.723452, "Street1": "六本木通り", "street2": "外苑西通り", "Street3": null, "rank": null }, "geometry": { "type": "Point", "coordinates": [ 139.723452, 35.659747 ] } },
{ "type": "Feature", "properties": { "FID": 4, "交差点番号": 5339352118, "交差点名": "高樹町", "Y": 35.659358, "X": 139.718988, "Street1": "六本木通り", "street2": "日赤通り", "Street3": "骨董通り", "rank": null }, "geometry": { "type": "Point", "coordinates": [ 139.718988, 35.659358 ] } },
{ "type": "Feature", "properties": { "FID": 5, "交差点番号": 5339354403, "交差点名": "南青山七丁目", "Y": 35.659, "X": 139.715475, "Street1": "六本木通り", "street2": "駒沢通り", "Street3": null, "rank": null }, "geometry": { "type": "Point", "coordinates": [ 139.715475, 35.659 ] } },
{ "type": "Feature", "properties": { "FID": 6, "交差点番号": 5339351888, "交差点名": "神泉町", "Y": 35.653995, "X": 139.693291, "Street1": "玉川通り", "street2": "旧山手通り", "Street3": null, "rank": null }, "geometry": { "type": "Point", "coordinates": [ 139.693291, 35.653995 ] } },
{ "type": "Feature", "properties": { "FID": 7, "交差点番号": 5339351339, "交差点名": "上馬", "Y": 35.635465, "X": 139.664601, "Street1": "玉川通り", "street2": "環七通り", "Street3": null, "rank": null }, "geometry": { "type": "Point", "coordinates": [ 139.664601, 35.635465 ] } },
{ "type": "Feature", "properties": { "FID": 8, "交差点番号": 5339353624, "交差点名": "瀬田", "Y": 35.621121, "X": 139.631212, "Street1": "玉川通り", "street2": "環八通り", "Street3": null, "rank": null }, "geometry": { "type": "Point", "coordinates": [ 139.631212, 35.621121 ] } },
{ "type": "Feature", "properties": { "FID": 9, "交差点番号": 5339454609, "交差点名": "青山一丁目", "Y": 35.67275, "X": 139.724066, "Street1": "青山通り", "street2": "外苑東通り", "Street3": null, "rank": null }, "geometry": { "type": "Point", "coordinates": [ 139.724066, 35.67275 ] } },
{ "type": "Feature", "properties": { "FID": 10, "交差点番号": 5339354815, "交差点名": "南青山三丁目", "Y": 35.669106, "X": 139.715915, "Street1": "青山通り", "street2": "外苑西通り", "Street3": null, "rank": null }, "geometry": { "type": "Point", "coordinates": [ 139.715915, 35.669106 ] } },
{ "type": "Feature", "properties": { "FID": 11, "交差点番号": 5339354234, "交差点名": "表参道", "Y": 35.6651717, "X": 139.7122125, "Street1": "六本木通り", "street2": "表参道", "Street3": null, "rank": null }, "geometry": { "type": "Point", "coordinates": [ 139.712532784349094, 35.665153763229576 ] } },
{ "type": "Feature", "properties": { "FID": 12, "交差点番号": 5339354809, "交差点名": "神宮前", "Y": 35.6684635, "X": 139.7050232, "Street1": "表参道", "street2": "明治通り", "Street3": null, "rank": null }, "geometry": { "type": "Point", "coordinates": [ 139.705331272871177, 35.668473389168291 ] } },
{ "type": "Feature", "properties": { "FID": 13, "交差点番号": 5339354456, "交差点名": "富ヶ谷", "Y": 35.667806, "X": 139.687905, "Street1": "井の頭通り", "street2": "山手通り", "Street3": null, "rank": null }, "geometry": { "type": "Point", "coordinates": [ 139.687905, 35.667806 ] } },
{ "type": "Feature", "properties": { "FID": 14, "交差点番号": 5339454233, "交差点名": "半蔵門", "Y": 35.683922, "X": 139.744148, "Street1": "新宿通り", "street2": "内堀通り", "Street3": null, "rank": null }, "geometry": { "type": "Point", "coordinates": [ 139.744148, 35.683922 ] } },
{ "type": "Feature", "properties": { "FID": 15, "交差点番号": 5339454243, "交差点名": "四谷見附", "Y": 35.685873, "X": 139.729417, "Street1": "新宿通り", "street2": "外堀通り", "Street3": null, "rank": null }, "geometry": { "type": "Point", "coordinates": [ 139.729417, 35.685873 ] } },
{ "type": "Feature", "properties": { "FID": 16, "交差点番号": 5339454256, "交差点名": "四谷三丁目", "Y": 35.687953, "X": 139.720364, "Street1": "新宿通り", "street2": "外苑東通り", "Street3": null, "rank": null }, "geometry": { "type": "Point", "coordinates": [ 139.720364, 35.687953 ] } },
{ "type": "Feature", "properties": { "FID": 17, "交差点番号": null, "交差点名": "参宮橋", "Y": 35.679498, "X": 139.694182, "Street1": null, "street2": null, "Street3": null, "rank": null }, "geometry": { "type": "Point", "coordinates": [ 139.6942711948046, 35.679288198201775 ] } },
{ "type": "Feature", "properties": { "FID": 18, "交差点番号": null, "交差点名": "初台", "Y": 35.682399, "X": 139.688203, "Street1": "甲州街道", "street2": "山手通り", "Street3": null, "rank": null }, "geometry": { "type": "Point", "coordinates": [ 139.688203, 35.682399 ] } },
{ "type": "Feature", "properties": { "FID": 19, "交差点番号": null, "交差点名": "大原", "Y": 35.672553, "X": 139.660641, "Street1": "甲州街道", "street2": "環七通り", "Street3": null, "rank": null }, "geometry": { "type": "Point", "coordinates": [ 139.660641, 35.672553 ] } },
{ "type": "Feature", "properties": { "FID": 20, "交差点番号": null, "交差点名": "富久町西", "Y": 35.691334, "X": 139.713603, "Street1": "靖国通り", "street2": "外苑西通り", "Street3": null, "rank": null }, "geometry": { "type": "Point", "coordinates": [ 139.714600731329, 35.691329526519368 ] } },
{ "type": "Feature", "properties": { "FID": 21, "交差点番号": null, "交差点名": "中野坂上", "Y": 35.697017, "X": 139.682887, "Street1": "青梅街道", "street2": "山手通り", "Street3": null, "rank": null }, "geometry": { "type": "Point", "coordinates": [ 139.682887, 35.697017 ] } },
{ "type": "Feature", "properties": { "FID": 22, "交差点番号": null, "交差点名": "四面道", "Y": 35.708046, "X": 139.615088, "Street1": "青梅街道", "street2": "環八通り", "Street3": null, "rank": null }, "geometry": { "type": "Point", "coordinates": [ 139.615088, 35.708046 ] } },
{ "type": "Feature", "properties": { "FID": 23, "交差点番号": null, "交差点名": "清水橋", "Y": 35.68885, "X": 139.682291, "Street1": "方南通り", "street2": "山手通り", "Street3": null, "rank": null }, "geometry": { "type": "Point", "coordinates": [ 139.682291, 35.68885 ] } },
{ "type": "Feature", "properties": { "FID": 24, "交差点番号": null, "交差点名": "南台", "Y": 35.686175, "X": 139.669088, "Street1": "方南通り", "street2": "中野通り", "Street3": null, "rank": null }, "geometry": { "type": "Point", "coordinates": [ 139.669088, 35.686175 ] } },
{ "type": "Feature", "properties": { "FID": 25, "交差点番号": null, "交差点名": "西永福", "Y": 35.680065, "X": 139.636281, "Street1": "井の頭通り", "street2": "方南通り", "Street3": null, "rank": null }, "geometry": { "type": "Point", "coordinates": [ 139.636281, 35.680065 ] } },
{ "type": "Feature", "properties": { "FID": 26, "交差点番号": null, "交差点名": "九段下", "Y": 35.695453, "X": 139.751389, "Street1": "靖国通り", "street2": null, "Street3": null, "rank": null }, "geometry": { "type": "Point", "coordinates": [ 139.751389, 35.695453 ] } },
{ "type": "Feature", "properties": { "FID": 27, "交差点番号": null, "交差点名": "飯田橋", "Y": 35.702615, "X": 139.744773, "Street1": "目白通り", "street2": "外堀通り", "Street3": "大久保通り", "rank": null }, "geometry": { "type": "Point", "coordinates": [ 139.744773, 35.702615 ] } },
{ "type": "Feature", "properties": { "FID": 28, "交差点番号": null, "交差点名": "江戸川橋", "Y": 35.710145, "X": 139.731563, "Street1": "目白通り", "street2": "新目白通り", "Street3": null, "rank": null }, "geometry": { "type": "Point", "coordinates": [ 139.731563, 35.710145 ] } },
{ "type": "Feature", "properties": { "FID": 29, "交差点番号": null, "交差点名": "神保町", "Y": 35.6959554, "X": 139.7576941, "Street1": "靖国通り", "street2": null, "Street3": null, "rank": null }, "geometry": { "type": "Point", "coordinates": [ 139.758074663917995, 35.695960683068023 ] } },
{ "type": "Feature", "properties": { "FID": 30, "交差点番号": null, "交差点名": "春日町", "Y": 35.708449, "X": 139.753648, "Street1": "白山通り", "street2": "春日通り", "Street3": null, "rank": null }, "geometry": { "type": "Point", "coordinates": [ 139.753648, 35.708449 ] } },
{ "type": "Feature", "properties": { "FID": 31, "交差点番号": null, "交差点名": "西片", "Y": 35.71168, "X": 139.752755, "Street1": "白山通り", "street2": "言問通り", "Street3": null, "rank": null }, "geometry": { "type": "Point", "coordinates": [ 139.752828446989383, 35.71121800579094 ] } },
{ "type": "Feature", "properties": { "FID": 32, "交差点番号": null, "交差点名": "千石一丁目", "Y": 35.72863, "X": 139.743895, "Street1": "白山通り", "street2": "不忍通り", "Street3": null, "rank": null }, "geometry": { "type": "Point", "coordinates": [ 139.743895, 35.72863 ] } },
{ "type": "Feature", "properties": { "FID": 33, "交差点番号": null, "交差点名": "白山上", "Y": 35.722582, "X": 139.752699, "Street1": "旧白山通り", "street2": null, "Street3": null, "rank": null }, "geometry": { "type": "Point", "coordinates": [ 139.752699, 35.722582 ] } },
{ "type": "Feature", "properties": { "FID": 34, "交差点番号": null, "交差点名": "西巣鴨", "Y": 35.744184, "X": 139.728082, "Street1": "中山道", "street2": "明治通り", "Street3": null, "rank": null }, "geometry": { "type": "Point", "coordinates": [ 139.728082, 35.744184 ] } },
{ "type": "Feature", "properties": { "FID": 35, "交差点番号": null, "交差点名": "本郷三丁目", "Y": 35.7074822, "X": 139.7606065, "Street1": "春日通り", "street2": "本郷通り", "Street3": null, "rank": null }, "geometry": { "type": "Point", "coordinates": [ 139.7606065, 35.7074822 ] } },
{ "type": "Feature", "properties": { "FID": 36, "交差点番号": null, "交差点名": "飛鳥山", "Y": 35.750859, "X": 139.737398, "Street1": "本郷通り", "street2": "明治通り", "Street3": null, "rank": null }, "geometry": { "type": "Point", "coordinates": [ 139.737398, 35.750859 ] } },
{ "type": "Feature", "properties": { "FID": 37, "交差点番号": null, "交差点名": "根津一丁目", "Y": 35.717878, "X": 139.7549458, "Street1": "不忍通り", "street2": "言問通り", "Street3": null, "rank": null }, "geometry": { "type": "Point", "coordinates": [ 139.765226588642548, 35.717881607439075 ] } },
{ "type": "Feature", "properties": { "FID": 38, "交差点番号": null, "交差点名": "大関横丁", "Y": 35.7299057, "X": 139.7919759, "Street1": "日光街道", "street2": "明治通り", "Street3": null, "rank": null }, "geometry": { "type": "Point", "coordinates": [ 139.791765623303121, 35.730014329950428 ] } },
{ "type": "Feature", "properties": { "FID": 39, "交差点番号": null, "交差点名": "上野広小路", "Y": 35.7080404, "X": 139.7728766, "Street1": "春日通り", "street2": "中央通り", "Street3": null, "rank": null }, "geometry": { "type": "Point", "coordinates": [ 139.773034936976984, 35.708037729735487 ] } },
{ "type": "Feature", "properties": { "FID": 40, "交差点番号": null, "交差点名": "岩本町", "Y": 35.695597, "X": 139.775431, "Street1": "靖国通り", "street2": "昭和通り", "Street3": null, "rank": null }, "geometry": { "type": "Point", "coordinates": [ 139.775431, 35.695597 ] } },
{ "type": "Feature", "properties": { "FID": 41, "交差点番号": null, "交差点名": "室町三丁目", "Y": 35.688678, "X": 139.772952, "Street1": "江戸通り", "street2": "中央通り", "Street3": null, "rank": null }, "geometry": { "type": "Point", "coordinates": [ 139.772952, 35.688678 ] } },
{ "type": "Feature", "properties": { "FID": 42, "交差点番号": null, "交差点名": "日本橋", "Y": 35.6825368, "X": 139.7733613, "Street1": "永代通り", "street2": "中央通り", "Street3": null, "rank": null }, "geometry": { "type": "Point", "coordinates": [ 139.773633007819399, 35.682524126256872 ] } },
{ "type": "Feature", "properties": { "FID": 43, "交差点番号": null, "交差点名": "京橋", "Y": 35.6764355, "X": 139.7696762, "Street1": "鍛冶橋通り", "street2": "中央通り", "Street3": null, "rank": null }, "geometry": { "type": "Point", "coordinates": [ 139.769768602639715, 35.676208851506665 ] } },
{ "type": "Feature", "properties": { "FID": 44, "交差点番号": null, "交差点名": "銀座四丁目", "Y": 35.6711764, "X": 139.7651101, "Street1": "晴海通り", "street2": "中央通り", "Street3": null, "rank": null }, "geometry": { "type": "Point", "coordinates": [ 139.765110099999987, 35.6711764 ] } },
{ "type": "Feature", "properties": { "FID": 45, "交差点番号": null, "交差点名": "神田橋", "Y": 35.690082, "X": 139.76432, "Street1": "日比谷通り", "street2": "本郷通り", "Street3": null, "rank": null }, "geometry": { "type": "Point", "coordinates": [ 139.764437594292275, 35.6900903516554 ] } },
{ "type": "Feature", "properties": { "FID": 46, "交差点番号": null, "交差点名": "常盤橋", "Y": 35.685208, "X": 139.7712276, "Street1": "外堀通り", "street2": null, "Street3": null, "rank": null }, "geometry": { "type": "Point", "coordinates": [ 139.7712276, 35.685208 ] } },
{ "type": "Feature", "properties": { "FID": 47, "交差点番号": null, "交差点名": "呉服橋", "Y": 35.6835962, "X": 139.770242, "Street1": "永代通り", "street2": "外堀通り", "Street3": null, "rank": null }, "geometry": { "type": "Point", "coordinates": [ 139.770842822605829, 35.683600017667324 ] } },
{ "type": "Feature", "properties": { "FID": 48, "交差点番号": null, "交差点名": "鍛冶橋", "Y": 35.6772601, "X": 139.7663943, "Street1": "鍛冶橋通り", "street2": "外堀通り", "Street3": null, "rank": null }, "geometry": { "type": "Point", "coordinates": [ 139.767099464352697, 35.677216130606261 ] } },
{ "type": "Feature", "properties": { "FID": 49, "交差点番号": null, "交差点名": "数寄屋橋", "Y": 35.6725026, "X": 139.7631828, "Street1": "晴海通り", "street2": "外堀通り", "Street3": null, "rank": null }, "geometry": { "type": "Point", "coordinates": [ 139.76318280000001, 35.6725026 ] } },
{ "type": "Feature", "properties": { "FID": 50, "交差点番号": null, "交差点名": "大手町", "Y": 35.6852014, "X": 139.7630559, "Street1": "永代通り", "street2": "日比谷通り", "Street3": null, "rank": null }, "geometry": { "type": "Point", "coordinates": [ 139.763055900000012, 35.6852014 ] } },
{ "type": "Feature", "properties": { "FID": 51, "交差点番号": null, "交差点名": "日比谷", "Y": 35.6749811, "X": 139.7589313, "Street1": "晴海通り", "street2": "日比谷通り", "Street3": null, "rank": null }, "geometry": { "type": "Point", "coordinates": [ 139.759542012330741, 35.674988710032054 ] } },
{ "type": "Feature", "properties": { "FID": 52, "交差点番号": null, "交差点名": "御成門", "Y": 35.6609901, "X": 139.7508163, "Street1": "日比谷通り", "street2": null, "Street3": null, "rank": null }, "geometry": { "type": "Point", "coordinates": [ 139.751525656257655, 35.660973103012019 ] } },
{ "type": "Feature", "properties": { "FID": 53, "交差点番号": null, "交差点名": "祝田橋", "Y": 35.6767101, "X": 139.7552463, "Street1": "晴海通り", "street2": "内堀通り", "Street3": "愛宕下通り", "rank": null }, "geometry": { "type": "Point", "coordinates": [ 139.755912592234665, 35.676723302288252 ] } },
{ "type": "Feature", "properties": { "FID": 54, "交差点番号": null, "交差点名": "桜田門", "Y": 35.6776913, "X": 139.7508861, "Street1": "桜田通り", "street2": "内堀通り", "Street3": null, "rank": null }, "geometry": { "type": "Point", "coordinates": [ 139.749825927559499, 35.676980982136172 ] } },
{ "type": "Feature", "properties": { "FID": 55, "交差点番号": null, "交差点名": "虎ノ門", "Y": 35.6704135, "X": 139.7484515, "Street1": "桜田通り", "street2": "外堀通り", "Street3": null, "rank": null }, "geometry": { "type": "Point", "coordinates": [ 139.749413009427514, 35.670417821652372 ] } },
{ "type": "Feature", "properties": { "FID": 56, "交差点番号": null, "交差点名": "飯倉", "Y": 35.6596732, "X": 139.7416475, "Street1": "桜田通り", "street2": "外苑東通り", "Street3": null, "rank": null }, "geometry": { "type": "Point", "coordinates": [ 139.742912390275194, 35.659624686383687 ] } },
{ "type": "Feature", "properties": { "FID": 57, "交差点番号": null, "交差点名": "飯倉片町", "Y": 35.6611961, "X": 139.7372493, "Street1": "麻布通り", "street2": "外苑東通り", "Street3": null, "rank": null }, "geometry": { "type": "Point", "coordinates": [ 139.737903906484945, 35.661228255164673 ] } },
{ "type": "Feature", "properties": { "FID": 58, "交差点番号": null, "交差点名": "赤羽橋", "Y": 35.6550473, "X": 139.7454063, "Street1": "桜田通り", "street2": "愛宕下通り", "Street3": "環状三号線", "rank": null }, "geometry": { "type": "Point", "coordinates": [ 139.745294871201935, 35.654957422298821 ] } },
{ "type": "Feature", "properties": { "FID": 59, "交差点番号": null, "交差点名": "新一の橋", "Y": 35.6562853, "X": 139.7363845, "Street1": "麻布通り", "street2": "環状三号線", "Street3": null, "rank": null }, "geometry": { "type": "Point", "coordinates": [ 139.737203718812822, 35.656319173942144 ] } },
{ "type": "Feature", "properties": { "FID": 60, "交差点番号": null, "交差点名": "古川橋", "Y": 35.6465662, "X": 139.735283, "Street1": "麻布通り", "street2": "明治通り", "Street3": null, "rank": null }, "geometry": { "type": "Point", "coordinates": [ 139.73589290149306, 35.64663895888313 ] } },
{ "type": "Feature", "properties": { "FID": 61, "交差点番号": null, "交差点名": "天現寺", "Y": 35.6476581, "X": 139.7221903, "Street1": "外苑西通り", "street2": "明治通り", "Street3": null, "rank": null }, "geometry": { "type": "Point", "coordinates": [ 139.722863184079529, 35.64768158541775 ] } },
{ "type": "Feature", "properties": { "FID": 62, "交差点番号": null, "交差点名": "清正公前", "Y": 35.6403522, "X": 139.7321, "Street1": "桜田通り", "street2": "目黒通り", "Street3": null, "rank": null }, "geometry": { "type": "Point", "coordinates": [ 139.732696885253318, 35.640385165215498 ] } },
{ "type": "Feature", "properties": { "FID": 63, "交差点番号": null, "交差点名": "白金台", "Y": 35.6369722, "X": 139.7240278, "Street1": "目黒通り", "street2": "外苑西通り", "Street3": null, "rank": null }, "geometry": { "type": "Point", "coordinates": [ 139.724027799999988, 35.6369722 ] } },
{ "type": "Feature", "properties": { "FID": 64, "交差点番号": null, "交差点名": "高輪台", "Y": 35.6321272, "X": 139.730036, "Street1": "桜田通り", "street2": null, "Street3": null, "rank": null }, "geometry": { "type": "Point", "coordinates": [ 139.730805301530353, 35.632113450289062 ] } },
{ "type": "Feature", "properties": { "FID": 65, "交差点番号": null, "交差点名": "渋谷橋", "Y": 35.6489353, "X": 139.7087401, "Street1": "駒沢通り", "street2": "明治通り", "Street3": null, "rank": null }, "geometry": { "type": "Point", "coordinates": [ 139.711276924051901, 35.64897825172168 ] } },
{ "type": "Feature", "properties": { "FID": 66, "交差点番号": null, "交差点名": "札の辻", "Y": 35.6451531, "X": 139.7435673, "Street1": "第一京浜", "street2": "三田通り", "Street3": null, "rank": null }, "geometry": { "type": "Point", "coordinates": [ 139.744179918821118, 35.645210261160223 ] } },
{ "type": "Feature", "properties": { "FID": 67, "交差点番号": null, "交差点名": "鎗ヶ崎", "Y": 35.6466413, "X": 139.6999081, "Street1": "駒沢通り", "street2": "旧山手通り", "Street3": null, "rank": null }, "geometry": { "type": "Point", "coordinates": [ 139.702421148954102, 35.646607321071208 ] } },
{ "type": "Feature", "properties": { "FID": 68, "交差点番号": null, "交差点名": "大鳥神社", "Y": 35.6327015, "X": 139.7074936, "Street1": "目黒通り", "street2": "山手通り", "Street3": null, "rank": null }, "geometry": { "type": "Point", "coordinates": [ 139.708421692175108, 35.632721568960321 ] } },
{ "type": "Feature", "properties": { "FID": 69, "交差点番号": null, "交差点名": "大崎広小路", "Y": 35.6232743, "X": 139.7196371, "Street1": "山手通り", "street2": "ソニー通り", "Street3": null, "rank": null }, "geometry": { "type": "Point", "coordinates": [ 139.722145678699349, 35.623278605745483 ] } },
{ "type": "Feature", "properties": { "FID": 70, "交差点番号": null, "交差点名": "平塚橋", "Y": 35.6154673, "X": 139.7063151, "Street1": "中原街道", "street2": "鮫洲大山線（環状6.5号線）", "Street3": null, "rank": null }, "geometry": { "type": "Point", "coordinates": [ 139.709045038551295, 35.615482854848231 ] } },
{ "type": "Feature", "properties": { "FID": 71, "交差点番号": null, "交差点名": "戸越三丁目", "Y": 35.6115931, "X": 139.7146733, "Street1": "第二京浜", "street2": "鮫洲大山線（環状6.5号線）", "Street3": null, "rank": null }, "geometry": { "type": "Point", "coordinates": [ 139.715302844836032, 35.611603693190752 ] } },
{ "type": "Feature", "properties": { "FID": 72, "交差点番号": null, "交差点名": "南千束", "Y": 35.6036541, "X": 139.6969183, "Street1": "中原街道", "street2": "環七通り", "Street3": null, "rank": null }, "geometry": { "type": "Point", "coordinates": [ 139.697603116620854, 35.603697630501685 ] } },
{ "type": "Feature", "properties": { "FID": 73, "交差点番号": null, "交差点名": "南蒲田", "Y": 35.5580162, "X": 139.7214194, "Street1": "第一京浜", "street2": "環八通り", "Street3": null, "rank": null }, "geometry": { "type": "Point", "coordinates": [ 139.722154338079747, 35.557989242918694 ] } },
{ "type": "Feature", "properties": { "FID": 74, "交差点番号": null, "交差点名": "三原橋", "Y": 35.6695894, "X": 139.766825, "Street1": "晴海通り", "street2": "昭和通り", "Street3": null, "rank": null }, "geometry": { "type": "Point", "coordinates": [ 139.767129491291172, 35.669570119310627 ] } },
{ "type": "Feature", "properties": { "FID": 75, "交差点番号": null, "交差点名": "築地四丁目", "Y": 35.6665533, "X": 139.7680731, "Street1": "新大橋通り", "street2": "晴海通り", "Street3": null, "rank": null }, "geometry": { "type": "Point", "coordinates": [ 139.770710599756427, 35.666609422076 ] } },
{ "type": "Feature", "properties": { "FID": 76, "交差点番号": null, "交差点名": "晴海三丁目", "Y": 35.6552825, "X": 139.7808536, "Street1": "晴海通り", "street2": "有明通り", "Street3": null, "rank": null }, "geometry": { "type": "Point", "coordinates": [ 139.781833456471247, 35.655247527684622 ] } },
{ "type": "Feature", "properties": { "FID": 77, "交差点番号": null, "交差点名": "茅場町", "Y": 35.6799446, "X": 139.779922, "Street1": "永代通り", "street2": "新大橋通り", "Street3": null, "rank": null }, "geometry": { "type": "Point", "coordinates": [ 139.780123424611332, 35.679900930277206 ] } },
{ "type": "Feature", "properties": { "FID": 78, "交差点番号": null, "交差点名": "水天宮前", "Y": 35.6837437, "X": 139.7844158, "Street1": "新大橋通り", "street2": "水天宮通り", "Street3": null, "rank": null }, "geometry": { "type": "Point", "coordinates": [ 139.7844158, 35.6837437 ] } },
{ "type": "Feature", "properties": { "FID": 79, "交差点番号": null, "交差点名": "浅草橋", "Y": 35.6949041, "X": 139.7840353, "Street1": "靖国通り", "street2": "江戸通り", "Street3": null, "rank": null }, "geometry": { "type": "Point", "coordinates": [ 139.7840353, 35.6949041 ] } },
{ "type": "Feature", "properties": { "FID": 80, "交差点番号": null, "交差点名": "新川二丁目", "Y": 35.6749938, "X": 139.7805542, "Street1": "八重洲通り", "street2": "鍛冶橋通り", "Street3": null, "rank": null }, "geometry": { "type": "Point", "coordinates": [ 139.781488224503647, 35.67498530928102 ] } },
{ "type": "Feature", "properties": { "FID": 81, "交差点番号": null, "交差点名": "門前仲町", "Y": 35.672789, "X": 139.7945098, "Street1": "永代通り", "street2": "清澄通り", "Street3": null, "rank": null }, "geometry": { "type": "Point", "coordinates": [ 139.794906028148546, 35.672400758101979 ] } },
{ "type": "Feature", "properties": { "FID": 82, "交差点番号": null, "交差点名": "森下駅前", "Y": 35.6879778, "X": 139.798045, "Street1": "新大橋通り", "street2": "清澄通り", "Street3": null, "rank": null }, "geometry": { "type": "Point", "coordinates": [ 139.798263232444214, 35.687978202879009 ] } },
{ "type": "Feature", "properties": { "FID": 83, "交差点番号": null, "交差点名": "緑三丁目", "Y": 35.6949923, "X": 139.804728, "Street1": "京葉道路", "street2": "三ツ目通り", "Street3": null, "rank": null }, "geometry": { "type": "Point", "coordinates": [ 139.805467615412653, 35.694984813189336 ] } },
{ "type": "Feature", "properties": { "FID": 84, "交差点番号": null, "交差点名": "江東橋", "Y": 35.6952441, "X": 139.8086553, "Street1": "京葉道路", "street2": null, "Street3": null, "rank": null }, "geometry": { "type": "Point", "coordinates": [ 139.807936691238694, 35.69510742558127 ] } },
{ "type": "Feature", "properties": { "FID": 85, "交差点番号": null, "交差点名": "木場五丁目", "Y": 35.669503, "X": 139.8057841, "Street1": "永代通り", "street2": "三ツ目通り", "Street3": null, "rank": null }, "geometry": { "type": "Point", "coordinates": [ 139.805784100000011, 35.669503 ] } },
{ "type": "Feature", "properties": { "FID": 86, "交差点番号": null, "交差点名": "大島六丁目", "Y": 35.6899041, "X": 139.8351683, "Street1": "新大橋通り", "street2": "丸八通り", "Street3": null, "rank": null }, "geometry": { "type": "Point", "coordinates": [ 139.835659358549663, 35.689859502109059 ] } },
{ "type": "Feature", "properties": { "FID": 87, "交差点番号": null, "交差点名": "区民センター", "Y": 35.6889624, "X": 139.8262546, "Street1": "新大橋通り", "street2": "明治通り", "Street3": null, "rank": null }, "geometry": { "type": "Point", "coordinates": [ 139.826292214418231, 35.689314526681841 ] } },
{ "type": "Feature", "properties": { "FID": 88, "交差点番号": null, "交差点名": "菊川駅前", "Y": 35.6884061, "X": 139.8059717, "Street1": "新大橋通り", "street2": "三ツ目通り", "Street3": null, "rank": null }, "geometry": { "type": "Point", "coordinates": [ 139.805971699999986, 35.6884061 ] } },
{ "type": "Feature", "properties": { "FID": 89, "交差点番号": null, "交差点名": "錦糸町駅前", "Y": 35.6956951, "X": 139.8144233, "Street1": "京葉道路", "street2": "四ツ目通り", "Street3": null, "rank": null }, "geometry": { "type": "Point", "coordinates": [ 139.815007945403323, 35.695667532851886 ] } },
{ "type": "Feature", "properties": { "FID": 90, "交差点番号": null, "交差点名": "外神田五丁目", "Y": 35.7029707, "X": 139.7713012, "Street1": "蔵前橋通り", "street2": "中央通り", "Street3": null, "rank": null }, "geometry": { "type": "Point", "coordinates": [ 139.771730396350989, 35.702992799898112 ] } },
{ "type": "Feature", "properties": { "FID": 91, "交差点番号": null, "交差点名": "青戸八丁目", "Y": 35.7573511, "X": 139.8538953, "Street1": "水戸街道", "street2": "環七通り", "Street3": null, "rank": null }, "geometry": { "type": "Point", "coordinates": [ 139.854511804393155, 35.757389152530074 ] } },
{ "type": "Feature", "properties": { "FID": 92, "交差点番号": null, "交差点名": "小滝橋", "Y": 35.7096543, "X": 139.6913361, "Street1": "早稲田通り", "street2": "小滝橋通り", "Street3": null, "rank": null }, "geometry": { "type": "Point", "coordinates": [ 139.693952506945976, 35.709620246160426 ] } },
{ "type": "Feature", "properties": { "FID": 93, "交差点番号": null, "交差点名": "大森警察署", "Y": 35.5737273, "X": 139.7314081, "Street1": "第一京浜", "street2": "産業道路", "Street3": null, "rank": null }, "geometry": { "type": "Point", "coordinates": [ 139.733919180093466, 35.574019986883826 ] } },
{ "type": "Feature", "properties": { "FID": 94, "交差点番号": null, "交差点名": "田園調布陸橋", "Y": 35.5890273, "X": 139.677063, "Street1": "中原街道", "street2": "環八通り", "Street3": null, "rank": null }, "geometry": { "type": "Point", "coordinates": [ 139.67785106314173, 35.58901653847083 ] } },
{ "type": "Feature", "properties": { "FID": 95, "交差点番号": null, "交差点名": "柿の木坂陸橋", "Y": 35.6204952, "X": 139.6791108, "Street1": "目黒通り", "street2": "環七通り", "Street3": null, "rank": null }, "geometry": { "type": "Point", "coordinates": [ 139.680393104802391, 35.620520704305328 ] } },
{ "type": "Feature", "properties": { "FID": 96, "交差点番号": null, "交差点名": "五本木", "Y": 35.6322291, "X": 139.6860323, "Street1": "駒沢通り", "street2": "鮫洲大山線（環状6.5号線）", "Street3": null, "rank": null }, "geometry": { "type": "Point", "coordinates": [ 139.686749775318219, 35.632270883748639 ] } },
{ "type": "Feature", "properties": { "FID": 97, "交差点番号": null, "交差点名": "三宿", "Y": 35.6472061, "X": 139.6773703, "Street1": "玉川通り", "street2": "鮫洲大山線（環状6.5号線）", "Street3": null, "rank": null }, "geometry": { "type": "Point", "coordinates": [ 139.678007761070376, 35.647248578061259 ] } },
{ "type": "Feature", "properties": { "FID": 98, "交差点番号": null, "交差点名": "三軒茶屋", "Y": 35.6435421, "X": 139.6705273, "Street1": "玉川通り", "street2": "世田谷通り", "Street3": "茶沢通り", "rank": null }, "geometry": { "type": "Point", "coordinates": [ 139.671221520086078, 35.643598263424487 ] } },
{ "type": "Feature", "properties": { "FID": 99, "交差点番号": null, "交差点名": "要町一丁目", "Y": 35.7331331, "X": 139.6987343, "Street1": "要町通り", "street2": "山手通り", "Street3": null, "rank": null }, "geometry": { "type": "Point", "coordinates": [ 139.699337071858935, 35.733158790959905 ] } },
{ "type": "Feature", "properties": { "FID": 100, "交差点番号": null, "交差点名": "熊野町", "Y": 35.7412231, "X": 139.7061523, "Street1": "川越街道", "street2": "山手通り", "Street3": null, "rank": null }, "geometry": { "type": "Point", "coordinates": [ 139.70677333777337, 35.741201878655573 ] } },
{ "type": "Feature", "properties": { "FID": 101, "交差点番号": null, "交差点名": "赤羽", "Y": 35.7837551, "X": 139.7199283, "Street1": "北本通り", "street2": "環八通り", "Street3": null, "rank": null }, "geometry": { "type": "Point", "coordinates": [ 139.720562672978417, 35.783738388245467 ] } },
{ "type": "Feature", "properties": { "FID": 102, "交差点番号": null, "交差点名": "練馬中央陸橋", "Y": 35.7447435, "X": 139.6279455, "Street1": "目白通り", "street2": "環八通り", "Street3": null, "rank": null }, "geometry": { "type": "Point", "coordinates": [ 139.628824493666059, 35.74472549222989 ] } },
{ "type": "Feature", "properties": { "FID": 103, "交差点番号": null, "交差点名": "豊玉陸橋", "Y": 35.7345397, "X": 139.6622284, "Street1": "目白通り", "street2": "環七通り", "Street3": null, "rank": null }, "geometry": { "type": "Point", "coordinates": [ 139.662647179006996, 35.734858322838882 ] } },
{ "type": "Feature", "properties": { "FID": 104, "交差点番号": null, "交差点名": "谷原", "Y": 35.7491863, "X": 139.6160291, "Street1": "目白通り", "street2": "笹目通り", "Street3": "富士街道", "rank": null }, "geometry": { "type": "Point", "coordinates": [ 139.618540645655827, 35.749173347594756 ] } },
{ "type": "Feature", "properties": { "FID": 105, "交差点番号": null, "交差点名": "大和町", "Y": 35.7624169, "X": 139.7052572, "Street1": "中山道", "street2": "環七通り", "Street3": null, "rank": null }, "geometry": { "type": "Point", "coordinates": [ 139.705581398155317, 35.761292662157771 ] } },
{ "type": "Feature", "properties": { "FID": 106, "交差点番号": null, "交差点名": "板橋中央陸橋", "Y": 35.7551481, "X": 139.6874363, "Street1": "川越街道", "street2": "環七通り", "Street3": null, "rank": null }, "geometry": { "type": "Point", "coordinates": [ 139.688010317069143, 35.755129978816925 ] } },
{ "type": "Feature", "properties": { "FID": 107, "交差点番号": null, "交差点名": "高円寺陸橋", "Y": 35.698002, "X": 139.636217, "Street1": "青梅街道", "street2": "環七通り", "Street3": null, "rank": null }, "geometry": { "type": "Point", "coordinates": [ 139.654689768571131, 35.698008020108688 ] } },
{ "type": "Feature", "properties": { "FID": 108, "交差点番号": null, "交差点名": "長島町交差点", "Y": 35.6676522, "X": 139.8720995, "Street1": "葛西橋通り", "street2": "環七通り", "Street3": null, "rank": null }, "geometry": { "type": "Point", "coordinates": [ 139.87355421350739, 35.667617982277534 ] } },
{ "type": "Feature", "properties": { "FID": 109, "交差点番号": null, "交差点名": "日曹橋", "Y": 35.6699435, "X": 139.8248606, "Street1": "永代通り", "street2": "明治通り", "Street3": null, "rank": null }, "geometry": { "type": "Point", "coordinates": [ 139.825770554569885, 35.669968517308646 ] } },
{ "type": "Feature", "properties": { "FID": 110, "交差点番号": null, "交差点名": "亀戸駅前", "Y": 35.6965901, "X": 139.8251253, "Street1": "京葉道路", "street2": "明治通り", "Street3": null, "rank": null }, "geometry": { "type": "Point", "coordinates": [ 139.825834288317338, 35.696584464724801 ] } },
{ "type": "Feature", "properties": { "FID": 111, "交差点番号": null, "交差点名": "馬道", "Y": 35.7157981, "X": 139.7979923, "Street1": "言問通り", "street2": null, "Street3": null, "rank": null }, "geometry": { "type": "Point", "coordinates": [ 139.798643022871801, 35.715824196595996 ] } },
{ "type": "Feature", "properties": { "FID": 112, "交差点番号": null, "交差点名": "青物横丁", "Y": 35.6096443, "X": 139.7398691, "Street1": "第一京浜", "street2": "池上通り", "Street3": null, "rank": null }, "geometry": { "type": "Point", "coordinates": [ 139.742449145545692, 35.609652128900635 ] } },
{ "type": "Feature", "properties": { "FID": 113, "交差点番号": null, "交差点名": "入船橋", "Y": 35.670229, "X": 139.7743233, "Street1": "新大橋通り", "street2": "佃大橋通り", "Street3": null, "rank": null }, "geometry": { "type": "Point", "coordinates": [ 139.775028565857269, 35.670169103121907 ] } },
{ "type": "Feature", "properties": { "FID": 114, "交差点番号": null, "交差点名": "八丁堀", "Y": 35.6766451, "X": 139.7774503, "Street1": "新大橋通り", "street2": "八重洲通り", "Street3": null, "rank": null }, "geometry": { "type": "Point", "coordinates": [ 139.778049228452488, 35.676626129067699 ] } },
{ "type": "Feature", "properties": { "FID": 115, "交差点番号": null, "交差点名": "馬場先門", "Y": 35.6784991, "X": 139.7603343, "Street1": "鍛冶橋通り", "street2": "内堀通り", "Street3": null, "rank": null }, "geometry": { "type": "Point", "coordinates": [ 139.760979698237833, 35.678563027403236 ] } },
{ "type": "Feature", "properties": { "FID": 116, "交差点番号": null, "交差点名": "東京消防庁前", "Y": 35.6893841, "X": 139.7602013, "Street1": "内堀通り", "street2": "千代田通り", "Street3": null, "rank": null }, "geometry": { "type": "Point", "coordinates": [ 139.760798178462267, 35.6894570987169 ] } },
{ "type": "Feature", "properties": { "FID": 117, "交差点番号": null, "交差点名": "平川門", "Y": 35.690367, "X": 139.740367, "Street1": "白山通り", "street2": "内堀通り", "Street3": null, "rank": null }, "geometry": { "type": "Point", "coordinates": [ 139.758840916885561, 35.690368337460072 ] } },
{ "type": "Feature", "properties": { "FID": 118, "交差点番号": null, "交差点名": "竹橋", "Y": 35.6906971, "X": 139.7557703, "Street1": "内堀通り", "street2": "代官町通り", "Street3": null, "rank": null }, "geometry": { "type": "Point", "coordinates": [ 139.75643887607967, 35.690744655387327 ] } },
{ "type": "Feature", "properties": { "FID": 119, "交差点番号": null, "交差点名": "赤坂見附", "Y": 35.6781441, "X": 139.7358673, "Street1": "青山通り", "street2": "外堀通り", "Street3": null, "rank": null }, "geometry": { "type": "Point", "coordinates": [ 139.736488416553925, 35.678130878191197 ] } },
{ "type": "Feature", "properties": { "FID": 120, "交差点番号": null, "交差点名": "水道橋", "Y": 35.7023832, "X": 139.754677, "Street1": "白山通り", "street2": "外堀通り", "Street3": null, "rank": null }, "geometry": { "type": "Point", "coordinates": [ 139.755399984180769, 35.70235943832531 ] } }
]
}
